<?xml version='1.0' encoding='UTF-8'?>
<kml xmlns='http://www.opengis.net/kml/2.2'>
	<Document>
		<name>A-Train map</name>
		<description><![CDATA[]]></description>
		<Folder>
			<name>A-Train layer</name>
			<Placemark>
				<styleUrl>#icon-503-FF8277</styleUrl>
				<name>Trinity Mills</name>
				<Point>
					<coordinates>-96.925142,32.980814,0.0</coordinates>
				</Point>
			</Placemark>
			<Placemark>
				<styleUrl>#icon-503-FF8277</styleUrl>
				<name>Hebron</name>
				<Point>
					<coordinates>-96.958475,33.010144,0.0</coordinates>
				</Point>
			</Placemark>
			<Placemark>
				<styleUrl>#icon-503-FF8277</styleUrl>
				<name>Old Town</name>
				<Point>
					<coordinates>-96.986386,33.047347,0.0</coordinates>
				</Point>
			</Placemark>
			<Placemark>
				<styleUrl>#icon-503-FF8277</styleUrl>
				<name>Highland Village/Lewisville Lake</name>
				<Point>
					<coordinates>-97.026008,33.083469,0.0</coordinates>
				</Point>
			</Placemark>
			<Placemark>
				<styleUrl>#icon-503-FF8277</styleUrl>
				<name>Medpark</name>
				<Point>
					<coordinates>-97.090522,33.182353,0.0</coordinates>
				</Point>
			</Placemark>
			<Placemark>
				<styleUrl>#icon-503-FF8277</styleUrl>
				<name>Downtown Denton</name>
				<Point>
					<coordinates>-97.126117,33.213444,0.0</coordinates>
				</Point>
			</Placemark>
			<Placemark>
				<styleUrl>#line-000000-4</styleUrl>
				<name>Trip to DDTC</name>
				<description><![CDATA[Trip from Trinity Mills station to Denton Dontown.]]></description>
				<LineString>
					<tessellate>0</tessellate>
					<coordinates>-96.925142,32.980814,0.0 -96.958475,33.010144,0.0 -96.986386,33.047347,0.0 -97.026008,33.083469,0.0 -97.090522,33.182353,0.0 -97.126117,33.213444,0.0</coordinates>
				</LineString>
			</Placemark>
		</Folder>
		<Style id='line-000000-4'>
			<LineStyle>
				<color>ff000000</color>
				<width>4</width>
			</LineStyle>
		</Style>
		<Style id='icon-503-FF8277'>
			<IconStyle>
				<color>ff7782FF</color>
				<scale>1.1</scale>
				<Icon>
					<href>http://www.gstatic.com/mapspro/images/stock/503-wht-blank_maps.png</href>
				</Icon>
			</IconStyle>
		</Style>
	</Document>
</kml>